{
	"departments": [
		{
			"id": "1",
			"name": "Шпитьківська Дитяча Школа Мистецтв",
			"town": "Шпитьки",
			"address": "08122, Київська обл., Києво-Святошинський район, с. Шпитьки, вул. Господарська, буд. 3",
			"phone": "+38(044)555-55-55",
			"info": "Some info about Shpitki.",
			"latitude": 50.412786,
			"longitude": 30.114327,
			"image": "shpitky/shpitky.jpg"
		},
		{
			"id": "2",
			"name": "Білогородка",
			"town": "Білогородка",
			"address": "",
			"phone": "",
			"info": "",
			"latitude": 50.380663,
			"longitude": 30.223550
		},
		{
			"id": "3",
			"name": "Гореничі",
			"town": "Гореничі",
			"address": "",
			"phone": "",
			"info": "",
			"latitude": 50.414496,
			"longitude": 30.205788
		},
		{
			"id": "4",
			"name": "Дмитрівка",
			"town": "Дмитрівка",
			"address": "",
			"phone": "",
			"info": "",
			"latitude": 50.458053,
			"longitude": 30.169691
		},
		{
			"id": "5",
			"name": "Михайлівка-Рубежівка",
			"town": "Михайлівка-Рубежівка",
			"address": "",
			"phone": "",
			"info": "",
			"latitude": 50.524163,
			"longitude": 30.140498
		},
		{
			"id": "6",
			"name": "Петрушки",
			"town": "Петрушки",
			"address": "",
			"phone": "",
			"info": "",
			"latitude": 50.420382,
			"longitude": 30.166081
		},
		{
			"id": "7",
			"name": "Личанка",
			"town": "Личанка",
			"address": "",
			"phone": "",
			"info": "",
			"latitude": 50.405322,
			"longitude": 30.094461
		},
		{
			"id": "8",
			"name": "Бузова",
			"town": "Бузова",
			"address": "",
			"phone": "",
			"info": "",
			"latitude": 50.416409,
			"longitude": 30.044363
		},
		{
			"id": "9",
			"name": "Будинок культури",
			"town": "Музичі",
			"address": "08125, c. Музичі, Київська обл.",
			"phone": "+38(097) 303-02-56",
			"info": "Some additional info here.",
			"latitude": 50.358475,
			"longitude": 30.111889,
			"image": "muzichi/muzichi.jpg"
		}
	]
}
